[
  {
    "name": "Caesars Palace",
    "street": "3570 S Las Vegas Blvd",
    "city": "Las Vegas",
    "state": "Nevada",
    "zip": "89109",
    "url": "caesars.com",
    "pos": {"lat":36.116156, "lng":-115.174500},
    "id": "1"
  },
  {
    "name": "MGM Grand",
    "street": "3799 S Las Vegas Blvd ",
    "city": "Las Vegas",
    "state": "Nevada",
    "zip": "89109",
    "url": " mgmgrand.com",
    "pos": {"lat":36.102581, "lng":-115.170254},
    "id": "2"
  },
  {
    "name": "Mandalay Bay",
    "street": "3950 S Las Vegas Blvd",
    "city": "Las Vegas",
    "state": "Nevada",
    "zip": "89119",
    "url": "mandalaybay.com",
    "pos": {"lat":36.091879, "lng":-115.175244},
    "id": "3"
  },
  {
    "name": "Circus Circus Hotel & Casino",
    "street": "2880 S Las Vegas Blvd ",
    "city": "Las Vegas",
    "state": "Nevada",
    "zip": "89109",
    "url": "circuscircus.com",
    "pos": {"lat":36.137773,"lng":-115.165370},
    "id": "4"
  },
  {
    "name": "Luxor Hotel & Casino",
    "street": "3900 S Las Vegas Blvd",
    "city": "Las Vegas",
    "state": "Nevada",
    "zip": "89119",
    "url": "luxor.com",
    "pos": {"lat":36.095718,"lng":-115.176094},
    "id": "5"
  },
  {
    "name": "Excalibur Hotel & Casino ",
    "street": "3850 S Las Vegas Blvd",
    "city": "Las Vegas",
    "state": "Nevada",
    "zip": "89109",
    "url": "excalibur.com",
    "pos": {"lat":36.098985, "lng":-115.175470},
    "id": "6"
  }
]
